[
  {
    "title": "Μουσείο/έκθεση φωτογραφίας",
    "content": "",
    "image": null,
    "gallery": [],
    "lat": 34.923889,
    "lng": 32.474444
  },
  {
    "title": "Αγιος Γεώργιος",
    "content": "",
    "image": null,
    "gallery": [],
    "lat": 34.924722,
    "lng": 32.472222
  },
  {
    "title": "Αγία Ειρήνη",
    "content": "",
    "image": null,
    "gallery": [],
    "lat": 34.926389,
    "lng": 32.4725
  },
  {
    "title": "Αγιος Μάρκος",
    "content": "",
    "image": null,
    "gallery": [],
    "lat": 34.926389,
    "lng": 32.473611
  },
  {
    "title": "Προφήτης Ηλίας",
    "content": "",
    "image": null,
    "gallery": [],
    "lat": 34.927222,
    "lng": 32.474722
  },
  {
    "title": "Χρυσελεούσης",
    "content": "",
    "image": null,
    "gallery": [],
    "lat": 34.924444,
    "lng": 32.474167
  },
  {
    "title": "Μουσείο/έκθεση φωτογραφίας",
    "content": "",
    "image": null,
    "gallery": [],
    "lat": 34.923889,
    "lng": 32.474444
  },
  {
    "title": "Θεοτοκούα",
    "content": "",
    "image": null,
    "gallery": [],
    "lat": 34.914444,
    "lng": 32.481389
  },
  {
    "title": "Αγιος Νήπιος",
    "content": "",
    "image": null,
    "gallery": [],
    "lat": 34.912222,
    "lng": 32.4775
  },
  {
    "title": "Αγιος Τρύφωνας",
    "content": "",
    "image": null,
    "gallery": [],
    "lat": 34.912222,
    "lng": 32.467778
  },
  {
    "title": "Κιοσκι",
    "content": "",
    "image": null,
    "gallery": [],
    "lat": 34.915556,
    "lng": 32.4675
  }
]
